STATION,ADDRESS,LOCALITY,ALTADDRESS,CREWING,LEVYTYPE,LONG_GDA94,LAT_GDA94,LONG_GDA20,LAT_GDA20
ACACIA RIDGE,127 BRADMAN ST,ACACIA RIDGE,cnr Bradman and Bellrick Sts,P,Class A,153.03853260300002,-27.58115886199994,153.03853862170087,-27.581146309190135
AGNES WATER,"LOT 1, ROUND HILL ROAD",AGNES WATER,,A,Class D,151.8932957730001,-24.219973248999963,151.89330230994796,-24.219960556686303
AIRLIE BEACH,2495 SHUTE HARBOUR RD,AIRLIE BEACH,,C,Class C,148.72746188700012,-20.278044214999966,148.72746909895412,-20.27803120665628
ALLORA,3 MUIR ST,ALLORA,,A,Class D,151.98464597800012,-28.03477014899994,151.98465205562908,-28.034757496080424
AMITY POINT,9 HEXTON ST,AMITY POINT,,A,Class D,153.44222305900007,-27.398449701999937,153.44222905768052,-27.398437188608902
ANNERLEY,346 IPSWICH RD,ANNERLEY,,P,Class A,153.03475210700003,-27.504391118999933,153.0347581358113,-27.504378565204206
ANZAC AVENUE,201 ANZAC AV,TOOWOOMBA,,P,Class A,151.9240748100001,-27.57181008999993,151.92408095059957,-27.57179742762667
ARAMAC,87 GORDON ST,ARAMAC,cnr Gordon and Burt Sts,A,Class D,145.24034205100008,-22.97166083299993,145.24034932142905,-22.97164758232748
ARANA HILLS,1145 SOUTH PINE RD,ARANA HILLS,,P,Class A,152.96251680000012,-27.38969775299995,152.96252285100624,-27.38968519105372
ASHGROVE,515 WATERWORKS RD,ASHGROVE,,P,Class A,152.97602425600007,-27.447892389999936,152.97603029823995,-27.44787982986695
ATHERTON,17 VERNON ST,ATHERTON,,C,Class B,145.47773494500007,-17.26752094799997,145.47774263929617,-17.26750766638481
AYR,47-49 SOPER ST,AYR,,C,Class B,147.40965797400008,-19.571624718999942,147.40966534852632,-19.571611598930637
BABINDA,44 EASTWOOD ST,BABINDA,,A,Class D,145.9214541980001,-17.344775950999974,145.92146185774124,-17.344762701261644
BARALABA,22 STOPFORD ST,BARALABA,,A,Class D,149.81126907600003,-24.182488364999983,149.8112758113623,-24.182475481516878
BARCALDINE,56 ASH ST,BARCALDINE,Corner Maple And Ash Sts,A,Class D,145.29106966900008,-23.553388731999974,145.29107688778365,-23.55337548949733
BARGARA,31 TANNER ST,BARGARA,,A,Class A,152.45876220800005,-24.81347978599996,152.45876862316524,-24.813467153381445
BIGGENDEN,22 GEORGE ST,BIGGENDEN,,A,Class D,152.04651405800007,-25.512081914999953,152.04652043102737,-25.51206924796885
BILINGA,240 COOLANGATTA RD,BILINGA,,P,Class A,153.51012679100006,-28.16039553099995,153.5101326839213,-28.16038303054963
BILOELA,190 CALLIDE ST,BILOELA,,A,Class D,150.50390482000012,-24.392444127999966,150.50391146784796,-24.392431307802966
BLACKALL,125 SHAMROCK ST,BLACKALL,,A,Class D,145.46249153000008,-24.42323506899993,145.4624986608107,-24.42322184532943
BLACKBUTT,72 HART ST,BLACKBUTT,,A,Class D,152.1008496070001,-26.884902721999936,152.10085581152998,-26.88489007123435
BLACKWATER,2 WILGA ST,BLACKWATER,,A,Class D,148.87843714500002,-23.578642784999943,148.87844402817998,-23.5786298167268
BOONAH,6 FARLEY ST,BOONAH,,A,Class D,152.68116172200007,-27.99640322099998,152.68116772730394,-27.996390635811064
BOULIA,59 BURKE ST,BOULIA,,A,Class D,139.91184569300003,-22.90788176899997,139.9118534600949,-22.90786821061469
BOWEN,44 GORDON ST,BOWEN,,C,Class B,148.24070110900004,-20.013203265999948,148.24070838230435,-20.013190215523167
BOYNE ISLAND,6 GILBERT CT,BOYNE ISLAND,,A,Class D,151.35295252700007,-23.946909906999963,151.3529591444566,-23.946897161242624
BRAMSTON BEACH,39 EVANS RD,BRAMSTON BEACH,,A,Class D,146.02480735900008,-17.356239125999934,146.024815011168,-17.356225883748394
BUDERIM,8 LINDSAY RD,BUDERIM,,A,Class A,153.05074566500002,-26.684986653999943,153.05075179487122,-26.684974095296365
BUNDABERG,57 WYLLIE ST,BUNDABERG,,P,Class A,152.35721696400003,-24.90134980499994,152.35722337850265,-24.901337163160974
BUNDAMBA,61 BRISBANE RD,BUNDAMBA,,P,Class A,152.8144792820001,-27.607440319999967,152.81448532159078,-27.6074277449927
BURLEIGH HEADS,164 WEST BURLEIGH RD,BURLEIGH HEADS,,P,Class A,153.44329035900012,-28.09950582099998,153.4432962671982,-28.099493313244054
BURPENGARY,185 PITT ROAD,BURPENGARY,,P,Class A,152.97693972900004,-27.169631589999938,152.9769458060799,-27.169619027753907
CABOOLTURE,54 LOWER KING ST,CABOOLTURE,,P,Class A,152.96089200300003,-27.085896395999953,152.96089809225117,-27.085883831481485
CAIRNS,237-241 GATTON ST,CAIRNS,cnr Gatton And Brown Sts,P,Class A,145.75043549100008,-16.928440464999937,145.75044319358435,-16.928427199576813
CAIRNS SOUTH,80-84 ROBERT RD,CAIRNS SOUTH,,P,Class A,145.73521153700005,-17.003505409999946,145.73521923482906,-17.003492144145156
CALLIOPE,2 MENZIES ST,CALLIOPE,,A,Class D,151.20052186600003,-24.005487922999976,151.20052849099528,-24.005475163493657
CAMIRA,170 OLD LOGAN ROAD AND ALICE STREET,CAMIRA,,P,Class A,152.915660827,-27.619998159999966,152.91566685406738,-27.619985595185284
CAMP HILL,112 FERGUSON RD,CAMP HILL,,P,Class A,153.07855616200004,-27.488069982999946,153.07856218816931,-27.48805743347777
CANNON HILL,24 CORPORATE DR,CANNON HILL,,P,Class A,153.09132169100008,-27.467657715999962,153.09132771838162,-27.46764516760082
CANUNGRA,FINCH RD,CANUNGRA,,A,Class D,153.16583484500006,-28.017228718999945,153.16584079431556,-28.01721618243964
CAPALABA,223 MT COTTON RD,CAPALABA,,P,Class A,153.18953552300002,-27.542667166999934,153.1895415303234,-27.542654629097044
CAPELLA,18 CONRAN ST,CAPELLA,,A,Class D,148.02523053900006,-23.085703948999935,148.0252375471364,-23.085690906758547
CARDWELL,2 PANOS ST,CARDWELL,,A,Class D,146.02642086000003,-18.26668613499993,146.0264284408776,-18.266672900613305
CECIL PLAINS,69 TAYLOR ST,CECIL PLAINS,,A,Class D,151.1901851890001,-27.531761592999942,151.19019141441066,-27.531748860891973
CHERBOURG,1 FISHER ST,CHERBOURG,,A,Class D,151.9567412560001,-26.28907056199995,151.95674754658233,-26.28905789258271
CHERMSIDE,526 HAMILTON RD,CHERMSIDE,,P,Class A,153.02359391800007,-27.38516274899996,153.02359996304588,-27.385150193141016
CHILDERS,8 BRASSINGTON DR,CHILDERS,,A,Class D,152.29114264200007,-25.23945730099996,152.29114902310414,-25.239444655472465
CHINCHILLA,20 VILLIERS ST,CHINCHILLA,,A,Class D,150.62885979600003,-26.743290655999942,150.62886617242947,-26.743277866032233
CLERMONT,31 SIRIUS ST,CLERMONT,,A,Class D,147.64152890700007,-22.823970654999982,147.64153597373019,-22.823957580136543
CLEVELAND,49 WELLINGTON ST,CLEVELAND,cnr Wellington and Russell Sts,P,Class A,153.25513480900008,-27.52901312199998,153.25514081101343,-27.529000590624964
CLONCURRY,44 SCARR ST,CLONCURRY,,A,Class D,140.50599035400012,-20.705979076999938,140.50599818907807,-20.70596552964707
COLLINSVILLE,29 GARRICK ST,COLLINSVILLE,,A,Class D,147.84212985300007,-20.552654357999927,147.84213710839896,-20.55264128012657
COOCHIEMUDLO ISLAND,45 ELIZABETH ST,COOCHIEMUDLO ISLAND,,A,Class D,153.3334903870001,-27.569175990999952,153.3334963754667,-27.569163467890593
COOKTOWN,115 HOPE ST,COOKTOWN,,A,Class D,145.2514650810001,-15.468248873999926,145.25147292203985,-15.468235561382077
COORAN,50 QUEEN ST,COORAN,,A,Class D,152.8336546590001,-26.336638800999935,152.83366085421483,-26.33662621778869
COOROY,16 MYALL ST,COOROY,,A,Class D,152.9107759100001,-26.42036911699995,152.9107820870449,-26.420356542153897
CROWS NEST,28 CREEK ST,CROWS NEST,,A,Class D,152.05656397600012,-27.262395458999947,152.05657013970776,-27.262382806946555
DALBY,21 NEW ST,DALBY,,A,Class D,151.26674242100012,-27.179643255999963,151.26674867931231,-27.179630528262834
DAYBORO,27 BRADLEY ST,DAYBORO,,A,Class D,152.82301900100003,-27.19860517999996,152.82302509077945,-27.198592602609807
DECEPTION BAY,26 ENDEAVOUR ST,DECEPTION BAY,,A,Class A,153.026806544,-27.18452765899997,153.026812613932,-27.18451510187298
DIMBULAH,1 RALEIGH ST,DIMBULAH,,A,Class D,145.10725350000007,-17.15064569699996,145.1072612268215,-17.15063238895314
DIRRANBANDI,4 COWILDI ST,DIRRANBANDI,,A,Class D,148.2233674590001,-28.58263378199996,148.22337390394063,-28.582620799269236
DURACK,506 BLUNDER ROAD,DURACK,,P,Class A,152.98557767300008,-27.587205448999953,152.98558369664966,-27.587192890924737
DYSART,27 QUEEN ELIZABETH DR,DYSART,,A,Class D,148.34821420200012,-22.58995649899998,148.34822122813526,-22.589943478801025
EATONS HILL,3 EATONS CROSSING ROAD,WARNER,South Pine Rd,P,Class A,152.9603611000001,-27.336477627999955,152.96036715792147,-27.336465065416537
EIDSVOLD,35 GOLDEN SPUR ST,EIDSVOLD,,A,Class D,151.12165901000003,-25.371444937999968,151.12166549044926,-25.371432182308645
EL ARISH,7 RYRIE ST,EL ARISH,,A,Class D,146.00375688000008,-17.805596006999963,146.00376449853954,-17.805582767070995
ELLIOTT HEADS,100 WELCH ST,ELLIOTT HEADS,,A,Class D,152.4885389430001,-24.908879938999974,152.48854534408346,-24.908867310084297
FOREST HILL,4 WILLIAM ST,FOREST HILL,,A,Class D,152.35634608400005,-27.588768631999983,152.35635217555156,-27.5887560116477
FORREST BEACH,MAPLE ST,FORREST BEACH,,A,Class D,146.29728729700003,-18.70762038099997,146.29729482395683,-18.707607169942754
GAYNDAH,8 PINEAPPLE ST,GAYNDAH,,A,Class D,151.60933943200007,-25.62595915999998,151.60934583512034,-25.62594645209331
GIN GIN,24 MULGRAVE ST,GIN GIN,,A,Class D,151.95463819200006,-24.98910419499998,151.95464463486024,-24.989091514873138
GIRU,12 BROOKES ST,GIRU,cnr Walton And Brookes Sts,A,Class D,147.10689855100009,-19.51356573399994,147.10690595288966,-19.513552590154713
GLADSTONE,3 CHARLES ST,WEST GLADSTONE,,P,Class A,151.24955356200007,-23.85841773599998,151.2495601987108,-23.858404979849755
GOOMBUNGEE,4 ANVIL COURT,GOOMBUNGEE,,A,Class D,151.84872327300002,-27.315025539999965,151.84872945269043,-27.315012868378037
GOOMERI,4 MOORE ST,GOOMERI,,A,Class D,152.0673112490001,-26.181312054999978,152.06731754105084,-26.18129939537261
GYMPIE,6 BLIGH ST,GYMPIE,cnr Bligh St and Nelson Rd,P,Class A,152.66819338200003,-26.191914030999953,152.66819961171026,-26.19190143019979
HARRISVILLE,50 QUEEN ST,HARRISVILLE,,A,Class D,152.66816334600003,-27.811001019999935,152.6681693759914,-27.810988432069472
HELENSVALE,1 DISCOVERY DR,HELENSVALE,,P,Class A,153.3372937260001,-27.92139145899995,153.3372996688444,-27.921378939052712
HELIDON,13 RAILWAY ST,HELIDON,,A,Class D,152.12322583600007,-27.55068461199994,152.12323195751887,-27.55067196866661
HENDRA,451 NUDGEE RD,HENDRA,,P,Class A,153.0748562760001,-27.415249090999964,153.0748623117692,-27.415236540529698
HIGHFIELDS,49 O'BRIEN ROAD,HIGHFIELDS,cnr O'Brien Road and Community Court,A,Class A,151.94734085400012,-27.451009514999953,151.947347006676,-27.450996853911484
HOLLYWELL,318 BAYVIEW ST,HOLLYWELL,,P,Class A,153.39874720000012,-27.895358508999948,153.3987531394932,-27.89534599510003
HOME HILL,83 TENTH AV,HOME HILL,,A,Class D,147.41604281700006,-19.660957593999967,147.41605018333738,-19.66094447518118
HUGHENDEN,4 SWANSON ST,HUGHENDEN,cnr Swanson And McLaren Sts,A,Class D,144.19367336000005,-20.850256657999978,144.19368088301337,-20.850243320445852
IMBIL,113 YABBA RD,IMBIL,,A,Class D,152.67650323500004,-26.45910187499993,152.6765094313003,-26.45908927716718
INGLEWOOD,32 ALBERT ST,INGLEWOOD,,A,Class D,151.08261824700003,-28.413778586999968,151.08262438041316,-28.41376585176873
INJUNE,58 RONALD ST,INJUNE,,A,Class D,148.56296612300002,-25.845376406999947,148.56297281108158,-25.84536343078141
JIMBOOMBA,22-24 JOHANNA ST,JIMBOOMBA,,A,Class D,153.02504993700006,-27.829084313999942,153.02505592573604,-27.829071761789447
KALBAR,66 GEORGE ST,KALBAR,,A,Class D,152.6238327530001,-27.940770160999932,152.62383877159988,-27.940757569703447
KARANA DOWNS,2 COLLEGE RD,KARANA DOWNS,,P,Class A,152.80691983000008,-27.552270130999943,152.80692587732426,-27.552257554805053
KAWANA,194 NICKLIN WAY,WARANA,,A,Class A,153.1291425700001,-26.72109236999995,153.1291486872546,-26.721079819473104
KEMP PLACE,21 MARTIN STREET,FORTITUDE VALLEY,,P,Class A,153.0357795100001,-27.460617356999933,153.03578554422756,-27.46060480296136
PULLENVALE,6 PULLENVALE RD,PULLENVALE,,P,Class A,152.92151795200004,-27.521419268999978,152.92152399084475,-27.5214067039929
KILCOY,17 MCCAULEY ST,KILCOY,,A,Class D,152.56500426700006,-26.94127790899995,152.56501041584914,-26.94126530400409
KILLARNEY,29 IVY ST,KILLARNEY,,A,Class D,152.29703983800005,-28.332915137999976,152.29704584392917,-28.332902517682466
KIPPA RING,66 BOARDMAN ROAD,KIPPA RING,,P,Class A,153.08787596000002,-27.219289688999936,153.08788201909147,-27.21927713828642
KIRWAN,84 THURINGOWA DRIVE,THURINGOWA CENTRAL,,P,Class A,146.73122386500006,-19.309386331999974,146.7312313116464,-19.30937315806348
KUMBIA,16 GORDON ST,KUMBIA,,A,Class D,151.6518465250001,-26.691704569999956,151.65185279966227,-26.691691874667814
LAIDLEY,56 WILLIAM ST,LAIDLEY,,A,Class D,152.39754825600005,-27.631762213999934,152.397554337776,-27.631749598017162
LOGANLEA,739 KINGSTON RD,WATERFORD WEST,cnr Kingston and Logan Reserve Rds,P,Class A,153.12146091800003,-27.682484684999963,153.1214669148896,-27.682472141332067
LOWOOD,52 MAIN ST,LOWOOD,,A,Class D,152.5813800850001,-27.460656121999932,152.58138616805405,-27.460643522734948
MACKAY,90 SYDNEY ST,MACKAY,Corner Alfred And Sydney Sts,P,Class A,149.18622617300002,-21.14582952099994,149.18623326675961,-21.14581655847225
MAGNETIC ISLAND,54 KELLY ST,NELLY BAY,,A,Class D,146.84541790600008,-19.156357614999934,146.84542535704708,-19.15634444833014
MARYBOROUGH,98 ALICE ST,MARYBOROUGH,cnr Alice and Lennox Sts,P,Class A,152.6984427440001,-25.540276981999966,152.69844904950344,-25.54026437892941
MEANDARRA,"LOT 2, OLSER ST",MEANDARRA,cnr  Payne and Olser Sts,A,Class D,149.88065218000008,-27.323154863999946,149.88065857231348,-27.323142011719177
MIDDLEMOUNT,85 CENTENARY DR,MIDDLEMOUNT,,A,Class D,148.7024058300001,-22.808085946999938,148.70241280417528,-22.808072957727614
MILES,46 MARIAN ST,MILES,,A,Class D,150.18742049500008,-26.658738570999958,150.18742692757786,-26.65872574063897
MILLMERRAN,2 ATTLEIGH ST,MILLMERRAN,,A,Class D,151.2685376820001,-27.873735025999963,151.26854385850825,-27.873722303878825
MIRIAM VALE,65 ROE ST,MIRIAM VALE,,A,Class D,151.55494788300007,-24.326935873999957,151.55495443930548,-24.326923150370696
MISSION BEACH,4 WEBB RD,MISSION BEACH,,A,Class D,146.09217261600008,-17.90475300399993,146.0921802208568,-17.904739771265696
MITCHELL,66 MARY ST,MITCHELL,,A,Class D,147.97751171900006,-26.486178914999982,147.97751840445514,-26.486165896212444
MONTO,15 KELVIN ST,MONTO,,A,Class D,151.12311051900008,-24.86563143199993,151.12311705592936,-24.865618672340098
MOOLOOLAH,69 KING ROAD,MOOLOOLAH,,A,Class D,152.95864961300003,-26.765828547999945,152.95865574236558,-26.765815980706837
MORANBAH,13 GRIFFIN ST,MORANBAH,,A,Class D,148.045197389,-22.000701745999947,148.04520449628555,-22.000688696419157
MORVEN,29-31 EURELLA ST,MORVEN,,A,Class D,147.11249208200002,-26.416237594999927,147.11249886662412,-26.416224507837068
MOUNT OMMANEY,238 ARRABRI AV,MOUNT OMMANEY,,P,Class A,152.93643224800007,-27.54806963599998,152.93643828188436,-27.548057072694835
MUNDUBBERA,31 BAUER ST,MUNDUBBERA,,A,Class D,151.30176913200012,-25.590733231999934,151.30177556978964,-25.59072049485775
NAMBOUR,678 BLI BLI  RD,NAMBOUR,,P,Class A,152.97204017900003,-26.61687841899993,152.97204632546328,-26.616865851856787
NANANGO,14 ALFRED ST,NANANGO,,A,Class D,151.99861835900003,-26.672493764999956,151.9986245996931,-26.672481102676308
NERANG,139 BEAUDESERT-NERANG RD,NERANG,,P,Class A,153.3251715440001,-27.993044005999934,153.32517747893823,-27.99303148538402
NOOSA HEADS,2 LANGURA ST,NOOSA HEADS,Unit 4 Leo Alley Road (Temp location end 19/12/11),P,Class A,153.09045627900002,-26.408055675999947,153.09046243920963,-26.40804311906944
NORTH MACKAY,49 BEACONSFIELD RD,NORTH MACKAY,,P,Class A,149.16608102400005,-21.099719039999968,149.16608812381534,-21.099706075375693
NORTH ROCKHAMPTON,753 YAAMBA ROAD,PARKHURST,,P,Class A,150.5158143320001,-23.314502237999932,150.51582109381755,-23.31448941001817
OAKEY,5 DESMOND ST,OAKEY,,A,Class D,151.72229761800008,-27.433481119999954,151.72230379714858,-27.433468437239103
PETRIE,4-6 YOUNG ST,PETRIE,,P,Class A,152.97872050800004,-27.268715568999937,152.97872657247018,-27.268703007718436
CRAIGNISH,67 CASTLES ROAD,CRAIGNISH,,A,Class A,152.7268288130001,-25.281909868999946,152.72683514677306,-25.28189726664186
PITTSWORTH,5 KRINKE ST,PITTSWORTH,,A,Class D,151.62723871100002,-27.714143788999934,151.62724486691818,-27.714131099407805
POINT LOOKOUT,85 EAST COAST ROAD,POINT LOOKOUT,,A,Class D,153.51999247700007,-27.426457613999958,153.51999846379837,-27.426445108776214
QUILPIE,61 PEGLER ST,QUILPIE,,A,Class D,144.26708993700004,-26.61940687899994,144.26709701243698,-26.61939359193235
RAINBOW BEACH,25 RAINBOW BEACH ROAD,RAINBOW BEACH,,A,Class D,153.09071505500003,-25.90540909899994,153.09072127727384,-25.905396538044986
RATHDOWNEY,RUNNING CREEK RD,RATHDOWNEY,,A,Class D,152.86523362800006,-28.21080312899994,152.86523958582225,-28.210790563786745
RAVENSHOE,16 THETA ST,RAVENSHOE,,A,Class D,145.48693074300002,-17.60963593699995,145.48693841090412,-17.609622658933215
REDLAND BAY,33 GORDON ROAD,REDLAND BAY,,P,Class A,153.289047857,-27.610897345999945,153.28905384491497,-27.61088481870896
RICHMOND,43 GOLDRING ST,RICHMOND,,A,Class D,143.14079949100005,-20.727719143999934,143.1408071085106,-20.72770574005857
ROBINA,54 INVESTIGATOR DR,ROBINA,,P,Class A,153.37751906900007,-28.075643715999945,153.37752498752423,-28.075631201354454
ROCKHAMPTON,113 KENT ST,ROCKHAMPTON,,P,Class A,150.50824261800005,-23.379495583999983,150.50824937361295,-23.37948275587206
ROCKLEA,93 MEDWAY ST,ROCKLEA,,P,Class A,153.00701914,-27.54148906699993,153.00702516711,-27.541476510713785
ROMA,41 MCDOWALL ST,ROMA,,A,Class D,148.7925683300001,-26.57180255999998,148.79257491992544,-26.571789608581454
ROMA STREET,279 UPPER ROMA ST,BRISBANE CITY,,P,Class A,153.01539137600003,-27.465815987999974,153.01539741175873,-27.465803431955866
SARINA,12 ANZAC ST,SARINA,,A,Class D,149.21406722000006,-21.420737524999936,149.2140742849357,-21.42072456714676
SOUTHPORT,229 NERANG RD,SOUTHPORT,cnr Prince St and Nerang Rd,P,Class A,153.3958195360001,-27.974870616999965,153.39582546554593,-27.974858103426786
SPRINGSURE,52 WOOD ST,SPRINGSURE,,A,Class D,148.09027427400008,-24.117448733999936,148.0902811784689,-24.117435705388388
ST GEORGE,37-39 HENRY ST,ST GEORGE,,A,Class D,148.58260954000002,-28.036922767999954,148.58261600051736,-28.036909810540177
STANTHORPE,54 LOCK ST,STANTHORPE,,A,Class D,151.9346513150001,-28.654183383999964,151.93465732212297,-28.654170731084974
SURAT,45 CORDELIA ST,SURAT,,A,Class D,149.06757953700003,-27.156573653999942,149.0675860361615,-27.156560730282436
SURFERS PARADISE,2794 GOLD COAST HWY,SURFERS PARADISE,,P,Class A,153.42880689100002,-28.01915951799998,153.42881281120356,-28.019147008136315
TARA,21 FRY ST,TARA,cnr Fry And Smallcombe Sts,A,Class D,150.4598608340001,-27.27825861399998,150.4598671681783,-27.278245812949052
TARINGA,26 WHITMORE ST,TARINGA,,P,Class A,152.98710748200006,-27.491368353999974,152.98711351757413,-27.49135579532132
TAROOM,12 KINNOUL ST,TAROOM,,A,Class D,149.7962965040001,-25.63998878999996,149.79630308748025,-25.639975916992036
TEXAS,16 ST JOHN ST,TEXAS,,A,Class D,151.16755167300005,-28.852547253999944,151.16755774427952,-28.85253453004417
THANGOOL,25 STANLEY ST,THANGOOL,,A,Class D,150.57459506700002,-24.487822611999945,150.57460169786066,-24.487809798974105
THEODORE,31 FIFTH AV,THEODORE,,A,Class D,150.07656949600005,-24.947917426999936,150.0765761253768,-24.947904573096576
TIERI,3 MALVERN AV,TIERI,,A,Class D,148.34490864200006,-23.03777330099996,148.34491562595278,-23.037760284217327
TOOGOOLAWAH,20 CRESSBROOK ST,TOOGOOLAWAH,,A,Class D,152.37786636500005,-27.08672663699997,152.377872515803,-27.086714014784107
TOOWOOMBA,11 KITCHENER ST,TOOWOOMBA,,P,Class A,151.95989732100008,-27.56438826899995,151.95990345860037,-27.56437561001148
TORQUAY,227 TORQUAY TCE,TORQUAY,,P,Class A,152.86561302300004,-25.28714598199997,152.8656193426917,-25.287133393482964
TOWNSVILLE,2-8 MOREY ST,TOWNSVILLE,,P,Class A,146.82058856600008,-19.263195894999967,146.82059600995586,-19.26318272736787
TULLY,LOT 600 MURRAY ST,TULLY,,A,Class D,145.92838879300007,-17.933202293999955,145.92839640664113,-17.93318904976794
WALKERSTON,21 DUTTON ST,WALKERSTON,,A,Class A,149.06854532700004,-21.161093730999937,149.06855242873948,-21.16108075864351
WALLANGARRA,53 MARGETTS ST,WALLANGARRA,,A,Class D,151.93087211500006,-28.92035935399997,151.93087808959174,-28.92034670277606
WANDOAN,51 NORTH ST,WANDOAN,Corner North And Waterloo Sts,A,Class D,149.96093154000005,-26.11821203599993,149.96093805532485,-26.118199181272278
WEST LOGAN,2 ORR CRT,HILLCREST,,P,Class A,153.03017397400004,-27.678159936999975,153.03017998132458,-27.678147384115835
WINDSOR,7 TRURO ST,WINDSOR,cnr Truro and Fosbery Sts,P,Class A,153.03319636800006,-27.427715280999962,153.03320240665522,-27.427702726441773
WINTON,69 VINDEX ST,WINTON,,A,Class D,143.03833700400003,-22.387239388999944,143.0383445169776,-22.3872259923066
WISHART,203 DAWSON RD,WISHART,cnr Dawson And Newnham Roads,P,Class A,153.09066994600005,-27.55507713199995,153.09067596238484,-27.55506458422606
WONDAI,82 MACKENZIE ST,WONDAI,,A,Class D,151.87301659500008,-26.319253292999974,151.87302289060634,-26.319240615789163
WOODFORD,2366 D'AGUILAR HIGHWAY,WOODFORD,,A,Class D,152.78037394800003,-26.96345385999996,152.78038007148282,-26.963441276498504
WOODLANDS,1 ABATTOIR ROAD,WOODLANDS,,P,Class A,146.7095467580001,-19.264696037999954,146.70955420993252,-19.264682862067115
WOODRIDGE,95 KINGSTON RD,WOODRIDGE,,P,Class A,153.1169400340001,-27.62682389899993,153.1169460384515,-27.626811354437585
WOOROOLIN,45 ALEXANDER ST,WOOROOLIN,Bunya Hwy,A,Class D,151.81523679200006,-26.409837627999934,151.8152430828729,-26.409824945984568
WULGURU,171 STUART DR,WULGURU,,P,Class A,146.81437861000006,-19.319617495999978,146.81438604971063,-19.319604328378354
WYNNUM,2006 WYNNUM RD,WYNNUM WEST,,P,Class A,153.15337580800008,-27.456218096999976,153.15338183017965,-27.456205554763102
YELARBON,32 TALOOM ST,YELARBON,,A,Class D,150.75410999100006,-28.572300372999962,150.75411614329056,-28.572287608743068
YEPPOON,16 MCBEAN ST,YEPPOON,,C,Class C,150.73712097800012,-23.140665901999967,150.73712773860828,-23.14065309265874
RIPLEY,338-396 RIPLEY RD,RIPLEY,,P,Class A,152.77981601400006,-27.659293461999937,152.7798220508419,-27.659280883952633
BRASSALL,DIAMENTINA BOULEVARD,BRASSALL,,P,CLASS A,152.7247000000001,-27.585099999999954,152.7247060520994,-27.585087415894165
BOLLON,56-58 MAIN ST,BOLLON,,A,Class D,147.4765607270001,-28.031713921999938,147.47656731470218,-28.031700875518926
CLIFTON,KING ST,CLIFTON,,A,Class D,151.90617523000003,-27.926082158999975,151.90618132958724,-27.926069497686527
CUNNAMULLA,1 EMMA STREET,CUNNAMULLA,,A,Class D,145.68456164400004,-28.067965389999983,145.68456843561037,-28.06795221021525
JANDOWAE,55 HIGH ST,JANDOWAE,,A,Class D,151.11062182000012,-26.78174784199996,151.11062814110332,-26.78173509657888
JULIA CREEK,66 BURKE ST,JULIA CREEK,,A,Class D,141.74295820300006,-20.65761982999993,141.7429659392059,-20.6576063458632
MAREEBA,20 MAMMINO ST,MAREEBA,,C,Class B,145.42556807200003,-17.011162599999977,145.42557578885555,-17.01114931258394
POMONA,9-13 RESERVE ST,POMONA,,A,Class D,152.85464886400007,-26.365332139999964,152.854655053551,-26.36531955911101
INGHAM,15 ELEANOR STREET,INGHAM,,C,Class B,146.162541217,-18.649601093999934,146.16254875810336,-18.649587872665276
PORT DOUGLAS,5 PORT DOUGLAS RD,PORT DOUGLAS,,C,Class C,145.46314617300004,-16.499084894999953,145.46315392572657,-16.49907160581031
CHARLEVILLE,96 GALATEA ST,CHARLEVILLE,,A,Class D,146.24114352900006,-26.40146789199997,146.2411504084211,-26.40145473949071
COOLUM,19 RUSSELL STREET,COOLUM,cnr Russell and Elizabeth Sts,C,Class D,153.08713448600008,-26.528853615999935,153.0871406315465,-26.528841059704416
AUGATHELLA,65 CAVANAGH ST,AUGATHELLA,,A,Class D,146.58612680600004,-25.795967738999934,146.5861337036936,-25.795954607207364
ESK,243 IPSWICH STREET,ESK,,A,Class D,152.41842042700011,-27.23528829099996,152.41842655530982,-27.235275673932037
TIN CAN BAY,"LOT 1, SNAPPER CREEK RD",TIN CAN BAY,,A,Class D,152.99536629500005,-25.92627133899998,152.99537252422138,-25.926258768639574
PIMPAMA,1 COX ROAD,PIMPAMA,,P,Class A,153.30262458000004,-27.823120959999983,153.30263053926026,-27.823108435759302
EMERALD,2A ANDREWS RD,EMERALD,,C,Class D,148.1725093770001,-23.54447553999995,148.17251632840978,-23.54446251336814
BEAUDESERT,39 BRISBANE ST,BEAUDESERT,,A,Class C,152.99658413800012,-27.989961024999957,152.99659010939817,-27.98994847119668
EMU PARK,87 HARTLEY ST,EMU PARK,cnr Hartley And Connor Sts,A,Class C,150.82008934400005,-23.26646515899995,150.8200960838004,-23.266452358280784
GORDONVALE,27 GILLES RANGE ROAD,GORDONVALE,,A,Class C,145.7750024280001,-17.106856926999967,145.7750101154217,-17.106843664836493
KINGAROY,25 EDWARD STREET,KINGAROY,cnr Edward and Kent Sts,C,Class C,151.83943189500008,-26.536967876999938,151.83943816835847,-26.536955198313805
MOUNT ISA,35 WEST ST,MOUNT ISA CITY,cnr West And Helen Sts,C,Class A,139.49004193000007,-20.723698836999972,139.4900498482724,-20.723685242386782
WARWICK,23 CANNING ST,WARWICK,,P,Class B,152.0369983800001,-28.215770584999973,152.03700442958902,-28.21575793853942
MOUNT MORGAN,32 MORGAN ST,MOUNT MORGAN,,A,Class C,150.3865881590001,-23.64575262699998,150.38659489742037,-23.645739790116316
GATTON,58 NORTH ST,GATTON,,A,Class C,152.27862962100005,-27.557692240999984,152.2786357248018,-27.557679612817797
BRIBIE ISLAND,10-12 FARADAY ST,BRIBIE ISLAND,,A,Class C,153.15412705200004,-27.06307369299998,153.15413312375955,-27.063061147719818
YARRAMAN,7 TOOMEY ST,YARRAMAN,,A,Class D,151.97925891900002,-26.839309858999968,151.97926514179207,-26.83929719614028
KILKIVAN,CNR WIDE BAY HWY AND CRESCENT ST,KILKIVAN,,A,Class D,152.24267082200004,-26.084328033999952,152.24267710777846,-26.08431539058883
MURGON,64 GORE ST,MURGON,,A,Class D,151.94054602000006,-26.24318547799993,151.9405523176652,-26.243172806658517
PROSTON,24 COLLINGWOOD ST,PROSTON,,A,Class D,151.60263049500008,-26.16471072099995,151.60263683641062,-26.164698016791654
TEWANTIN,2 HILTON TCE,TEWANTIN,,A,Class A,153.04383905800012,-26.396322685999962,153.04384522442135,-26.396310124289325
BEERWAH,23A BEERWAH PARADE,BEERWAH,,A,Class D,152.9592854330001,-26.85524427799993,152.95929155118216,-26.855231711484073
CALOUNDRA,18 INDUSTRIAL AV,CALOUNDRA WEST,,P,Class A,153.11796024900002,-26.795544219999954,153.11796635810668,-26.795531668941422
MAROOCHYDORE,1 NORTH BUDERIM BVD,MAROOCHYDORE,,P,Class A,153.0651203870001,-26.662585242999967,153.0651265181744,-26.66257268556172
CHARLTON,17 STEGER RD,CHARLTON,,P,Class A,151.84802355600004,-27.517913490999945,151.84802971137418,-27.51790082090977
MALANDA,23 JAMES ST,MALANDA,,A,Class D,145.59549430700008,-17.353053745999944,145.5955019872189,-17.35304047331868
HERBERTON,38 PERKINS ST,HERBERTON,,A,Class D,145.3874642390001,-17.389219055999945,145.38747193001214,-17.38920576916916
SMITHFIELD,2-4 AINSLIE PLACE ,SMITHFIELD,,P,Class A,145.69466416800003,-16.832724558999928,145.69467188135178,-16.832711288830197
THURSDAY ISLAND,50 LOBAN ST,THURSDAY ISLAND,,A,Class C,142.2222782020001,-10.577056310999978,142.2222864988279,-10.577042768706685
INNISFAIL,48-50 FITZGERALD ESPLANADE,INNISFAIL,,C,Class B,146.03086498400012,-17.52162877799998,146.03087262289958,-17.521615537594762
KURRIMINE BEACH,911 MURDERING PT RD,KURRIMINE BEACH,,A,Class D,146.10140992700008,-17.773397988999932,146.1014175415548,-17.77338475581276
ALPHA,1 BURNS ST,ALPHA,,A,Class D,146.63327090500002,-23.649268335999977,146.63327798978142,-23.649255190620174
BEENLEIGH,35 BRIGADE DR,BEENLEIGH,,P,Class A,153.20190856400006,-27.70333087299997,153.2019145495238,-27.703318337615357
BURNETT HEADS,15 BREWER ST,BURNETT HEADS,,A,Class D,152.4099731220001,-24.763895555999966,152.40997954762366,-24.763882918194977
DUNWICH,39 MITCHELL CR,DUNWICH,,A,Class D,153.40866519400004,-27.49769418799997,153.40867118355277,-27.49768167197357
ENOGGERA,224 LLOYD ST,ENOGGERA,,P,Class A,152.98881725400008,-27.425457406999953,152.98882329769296,-27.42544484797157
GOONDIWINDI,173 MARSHALL ST,GOONDIWINDI,,A,Class D,150.3125491840001,-28.547462184999972,150.3125553899936,-28.547449380568356
HALIFAX,5 ROSENDAHL ST,HALIFAX,,A,Class D,146.28651982400004,-18.58442829699993,146.28652736159563,-18.584415084114703
KENILWORTH,10 PHILIP ST,KENILWORTH,,A,Class D,152.7266842780001,-26.594653690999962,152.72669045253417,-26.594641099224678
KOORALBYN,13 SALISBURY AV,KOORALBYN,,A,Class D,152.84205507900003,-28.085723047999977,152.84206105526889,-28.08571047949711
KURANDA,12A COONDOO ST,KURANDA,,A,Class D,145.63448627100001,-16.820406780999974,145.63449398904288,-16.820393506501425
MILLAA MILLAA,1 MAPLE AV,MILLAA MILLAA,,A,Class D,145.61289038200005,-17.511867158999962,145.61289804902546,-17.511853888887757
MOURA,5 GILCHRIST ST,MOURA,,A,Class D,149.9745900570001,-24.57053091499995,149.9745967362362,-24.570518049022546
PROSERPINE,61 HINSCHEN ST,PROSERPINE,,A,Class D,148.5786136360001,-20.40432442699995,148.5786208476596,-20.40431140742233
YUNGABURRA,32 EACHAM RD,YUNGABURRA,,A,Class D,145.5846603130001,-17.270832208999934,145.58466800014867,-17.27081893486086
ROSEWOOD,41A ALBERT ST,ROSEWOOD,,A,Class D,152.59037090200002,-27.637500364999937,152.5903769621205,-27.637487768016385
MALENY,2 DIXON AVE,MALENY,,A,Class D,152.83656280600007,-26.755613299999936,152.8365689493221,-26.755600720433364
BRACKEN RIDGE,223 BRACKEN RIDGE ROAD,BRACKEN RIDGE,,P,Class A,153.04260319000002,-27.31175203999993,153.04260924226196,-27.31173948546828
TAIGUM,263 BEAMS ROAD,TAIGUM,,P,Class A,153.04656645700004,-27.350896294999927,153.0465725039095,-27.35088374117652
MOSSMAN,87-89 FRONT ST,MOSSMAN,,A,Class D,145.37250074500002,-16.467253262999975,145.37250850562333,-16.4672399672708
MARBURG,75 EDMOND ST,MARBURG,,A,Class A,152.59568517900004,-27.56570544899995,152.59569124747182,-27.565692851975165
CHARTERS TOWERS,3-5 ENTERPRISE RD,CHARTERS TOWERS,,C,Class C,146.2701707000001,-20.076610409999944,146.27017811813386,-20.076597208483587
GRACEMERE,9 RUSSELL ST,GRACEMERE,,A,Class A,150.4553046200001,-23.438657889999945,150.45531137410782,-23.438645057587728
LONGREACH,107-111 EMU ST,LONGREACH,,A,Class D,144.24747666200005,-23.44078187899993,144.24748398772402,-23.44076856583363
GLENDEN,2 BELL PL,GLENDEN,,A,Class D,148.118950164,-21.358349045999944,148.11895732424364,-21.358335997003525
YARRABILBA,23-31 ADLER CIRCUIT,YARRABILBA,,P,Class A,153.0995453800001,-27.802543619999938,153.09955136399284,-27.80253107507015
TAMBORINE MOUNTAIN,126 MAIN WESTERN RD,TAMBORINE MOUNTAIN,,A,Class D,153.18042910200006,-27.93639522099994,153.18043506007095,-27.93638268527883
